{
  "stores": [
    {
      "id": "Walmart-22 Pinebush Rd",
      "name": "Walmart",
      "logo": "Logo_Walmart.png",
      "location": "22 Pinebush Rd",
      "filename": "Walmart-100 The Boardwalk-2025-06-12.json",
      "validUntil": "2025-06-12",
      "location_name": "N/a",
      "city": "Cambridge",
      "postal_code": "N1R 8K5",
      "coordinates": "43.410615, -80.327054",
      "flyer": "Walmart-22 Pinebush Rd-2025-06-12.pdf"
    },
    {
      "id": "Walmart-2960 Kingsway Dr",
      "name": "Walmart",
      "logo": "Logo_Walmart.png",
      "location": "2960 Kingsway Dr",
      "filename": "Walmart-100 The Boardwalk-2025-06-12.json",
      "validUntil": "2025-06-12",
      "location_name": "",
      "city": "Kitchener",
      "postal_code": "N2C 1X1",
      "coordinates": "43.424654, -80.43883",
      "flyer": "Walmart-2960 Kingsway Dr-2025-06-12.pdf"
    },
    {
      "id": "Walmart-1400 Ottawa St S",
      "name": "Walmart",
      "logo": "Logo_Walmart.png",
      "location": "1400 Ottawa St S",
      "filename": "Walmart-100 The Boardwalk-2025-06-12.json",
      "validUntil": "2025-06-12",
      "location_name": "Kitchener (w)",
      "city": "Kitchener",
      "postal_code": "N2E 4E2",
      "coordinates": "43.415391, -80.516781",
      "flyer": "Walmart-1400 Ottawa St S-2025-06-12.pdf"
    },
    {
      "id": "Walmart-11 Woodlawn Rd W",
      "name": "Walmart",
      "logo": "Logo_Walmart.png",
      "location": "11 Woodlawn Rd W",
      "filename": "Walmart-100 The Boardwalk-2025-06-12.json",
      "validUntil": "2025-06-12",
      "location_name": "",
      "city": "Guelph",
      "postal_code": "N1H 0B4",
      "coordinates": "43.565518, -80.281274",
      "flyer": "Walmart-11 Woodlawn Rd W-2025-06-12.pdf"
    },
    {
      "id": "Walmart-175 Stone Rd W",
      "name": "Walmart",
      "logo": "Logo_Walmart.png",
      "location": "175 Stone Rd W",
      "filename": "Walmart-100 The Boardwalk-2025-06-12.json",
      "validUntil": "2025-06-12",
      "location_name": "Guelph (s)",
      "city": "Guelph",
      "postal_code": "N1G 5L4",
      "coordinates": "43.523081, -80.232962",
      "flyer": "Walmart-175 Stone Rd W-2025-06-12.pdf"
    },
    {
      "id": "Walmart-100 The Boardwalk",
      "name": "Walmart",
      "logo": "Logo_Walmart.png",
      "location": "100 The Boardwalk",
      "filename": "Walmart-100 The Boardwalk-2025-06-12.json",
      "validUntil": "2025-06-12",
      "location_name": "Waterloo, west",
      "city": "Kitchener",
      "postal_code": "N2N 0B1",
      "coordinates": "43.433001, -80.558123",
      "flyer": "Walmart-100 The Boardwalk-2025-06-12.pdf"
    },
    {
      "id": "Walmart-70 Bridgeport Rd E",
      "name": "Walmart",
      "logo": "Logo_Walmart.png",
      "location": "70 Bridgeport Rd E",
      "filename": "Walmart-100 The Boardwalk-2025-06-12.json",
      "validUntil": "2025-06-12",
      "location_name": "Waterloo centre",
      "city": "Waterloo",
      "postal_code": "N2J 2J9",
      "coordinates": "43.470373, -80.515241",
      "flyer": "Walmart-70 Bridgeport Rd E-2025-06-12.pdf"
    },
    {
      "id": "Walmart-335 Farmers Market Rd",
      "name": "Walmart",
      "logo": "Logo_Walmart.png",
      "location": "335 Farmers Market Rd",
      "filename": "Walmart-100 The Boardwalk-2025-06-12.json",
      "validUntil": "2025-06-12",
      "location_name": "",
      "city": "Waterloo",
      "postal_code": "N2V 0A4",
      "coordinates": "43.509443, -80.548945",
      "flyer": "Walmart-335 Farmers Market Rd-2025-06-12.pdf"
    },
    {
      "id": "Walmart-300 King George Rd",
      "name": "Walmart",
      "logo": "Logo_Walmart.png",
      "location": "300 King George Rd",
      "filename": "Walmart-100 The Boardwalk-2025-06-12.json",
      "validUntil": "2025-06-12",
      "location_name": "Brantford, Ontario",
      "city": "Brantford",
      "postal_code": "N3R 5M1",
      "coordinates": "43.183322, -80.279638",
      "flyer": "Walmart-300 King George Rd-2025-06-12.pdf"
    },
    {
      "id": "Walmart-801 St David St N",
      "name": "Walmart",
      "logo": "Logo_Walmart.png",
      "location": "801 St David St N",
      "filename": "Walmart-100 The Boardwalk-2025-06-12.json",
      "validUntil": "2025-06-12",
      "location_name": "Fergus",
      "city": "Fergus",
      "postal_code": "N1M 2L1",
      "coordinates": "43.712833, -80.389071",
      "flyer": "Walmart-801 St David St N-2025-06-12.pdf"
    },
    {
      "id": "Walmart-1051 Garner Rd W",
      "name": "Walmart",
      "logo": "Logo_Walmart.png",
      "location": "1051 Garner Rd W",
      "filename": "Walmart-100 The Boardwalk-2025-06-12.json",
      "validUntil": "2025-06-12",
      "location_name": "Ancaster, ON",
      "city": "Ancaster",
      "postal_code": "L9G 3K9",
      "coordinates": "43.197196, -80.013991",
      "flyer": "Walmart-1051 Garner Rd W-2025-06-12.pdf"
    },
    {
      "id": "Walmart-675 Upper James St",
      "name": "Walmart",
      "logo": "Logo_Walmart.png",
      "location": "675 Upper James St",
      "filename": "Walmart-100 The Boardwalk-2025-06-12.json",
      "validUntil": "2025-06-12",
      "location_name": "Hamilton, Ont",
      "city": "Hamilton",
      "postal_code": "L9C 2Z5",
      "coordinates": "43.234652, -79.877894",
      "flyer": "Walmart-675 Upper James St-2025-06-12.pdf"
    },
    {
      "id": "Walmart-90 Dundas St E",
      "name": "Walmart",
      "logo": "Logo_Walmart.png",
      "location": "90 Dundas St E",
      "filename": "Walmart-100 The Boardwalk-2025-06-12.json",
      "validUntil": "2025-06-12",
      "location_name": "Dundas, Ont",
      "city": "Waterdown",
      "postal_code": "L0R 2H2",
      "coordinates": "43.325724, -79.901675",
      "flyer": "Walmart-90 Dundas St E-2025-06-12.pdf"
    },
    {
      "id": "Zehrs-180 Holiday Inn Dr",
      "name": "Zehrs",
      "logo": "Logo_Zehrs.png",
      "location": "180 Holiday Inn Dr",
      "filename": "Zehrs-1005 Ottawa St N-2025-06-12.json",
      "validUntil": "2025-06-12",
      "location_name": "Hespeler",
      "city": "Cambridge",
      "postal_code": "N3C 3Z4",
      "coordinates": "43.416146, -80.323344",
      "flyer": "Zehrs-180 Holiday Inn Dr-2025-06-12.pdf"
    },
    {
      "id": "Zehrs-400 Conestoga Blvd",
      "name": "Zehrs",
      "logo": "Logo_Zehrs.png",
      "location": "400 Conestoga Blvd",
      "filename": "Zehrs-1005 Ottawa St N-2025-06-12.json",
      "validUntil": "2025-06-12",
      "location_name": "Cambridge Centre",
      "city": "Cambridge",
      "postal_code": "N1R 7L7",
      "coordinates": "43.391838, -80.316152",
      "flyer": "Zehrs-400 Conestoga Blvd-2025-06-12.pdf"
    },
    {
      "id": "Zehrs-123 Pioneer Dr Pk",
      "name": "Zehrs",
      "logo": "Logo_Zehrs.png",
      "location": "123 Pioneer Dr Pk",
      "filename": "Zehrs-1005 Ottawa St N-2025-06-12.json",
      "validUntil": "2025-06-12",
      "location_name": "Pioneer Park",
      "city": "Kitchener",
      "postal_code": "N2P 2A3",
      "coordinates": "43.394128, -80.432709",
      "flyer": "Zehrs-123 Pioneer Dr Pk-2025-06-12.pdf"
    },
    {
      "id": "Zehrs-1375 Weber St E",
      "name": "Zehrs",
      "logo": "Logo_Zehrs.png",
      "location": "1375 Weber St E",
      "filename": "Zehrs-1005 Ottawa St N-2025-06-12.json",
      "validUntil": "2025-06-12",
      "location_name": "Hiway Centre",
      "city": "Kitchener",
      "postal_code": "N2A 2Y7",
      "coordinates": "43.432026, -80.441405",
      "flyer": "Zehrs-1375 Weber St E-2025-06-12.pdf"
    },
    {
      "id": "Zehrs-1005 Ottawa St N",
      "name": "Zehrs",
      "logo": "Logo_Zehrs.png",
      "location": "1005 Ottawa St N",
      "filename": "Zehrs-1005 Ottawa St N-2025-06-12.json",
      "validUntil": "2025-06-12",
      "location_name": "Stanley Park",
      "city": "Kitchener",
      "postal_code": "N2A 1H2",
      "coordinates": "43.449199, -80.445264",
      "flyer": "Zehrs-1005 Ottawa St N-2025-06-12.pdf"
    },
    {
      "id": "Zehrs-200 Franklin Blvd",
      "name": "Zehrs",
      "logo": "Logo_Zehrs.png",
      "location": "200 Franklin Blvd",
      "filename": "Zehrs-1005 Ottawa St N-2025-06-12.json",
      "validUntil": "2025-06-12",
      "location_name": "South Cambridge",
      "city": "Cambridge",
      "postal_code": "N1R 8N8",
      "coordinates": "43.356563, -80.287996",
      "flyer": "Zehrs-200 Franklin Blvd-2025-06-12.pdf"
    },
    {
      "id": "Zehrs-1045 Paisley Rd",
      "name": "Zehrs",
      "logo": "Logo_Zehrs.png",
      "location": "1045 Paisley Rd",
      "filename": "Zehrs-1005 Ottawa St N-2025-06-12.json",
      "validUntil": "2025-06-12",
      "location_name": "Imperial",
      "city": "Guelph",
      "postal_code": "N1K 1X6",
      "coordinates": "43.522615, -80.289386",
      "flyer": "Zehrs-1045 Paisley Rd-2025-06-12.pdf"
    },
    {
      "id": "Zehrs-750 Ottawa St S",
      "name": "Zehrs",
      "logo": "Logo_Zehrs.png",
      "location": "750 Ottawa St S",
      "filename": "Zehrs-1005 Ottawa St N-2025-06-12.json",
      "validUntil": "2025-06-12",
      "location_name": "Laurentian",
      "city": "Kitchener",
      "postal_code": "N2E 1B6",
      "coordinates": "43.423765, -80.487528",
      "flyer": "Zehrs-750 Ottawa St S-2025-06-12.pdf"
    },
    {
      "id": "Zehrs-160 Kortright Rd W",
      "name": "Zehrs",
      "logo": "Logo_Zehrs.png",
      "location": "160 Kortright Rd W",
      "filename": "Zehrs-1005 Ottawa St N-2025-06-12.json",
      "validUntil": "2025-06-12",
      "location_name": "Hartsland",
      "city": "Guelph",
      "postal_code": "N1G 4W2",
      "coordinates": "43.513225, -80.218011",
      "flyer": "Zehrs-160 Kortright Rd W-2025-06-12.pdf"
    },
    {
      "id": "Zehrs-124 Clair Rd E",
      "name": "Zehrs",
      "logo": "Logo_Zehrs.png",
      "location": "124 Clair Rd E",
      "filename": "Zehrs-1005 Ottawa St N-2025-06-12.json",
      "validUntil": "2025-06-12",
      "location_name": "Clairfield",
      "city": "Guelph",
      "postal_code": "N1L 0G6",
      "coordinates": "43.503022, -80.189968",
      "flyer": "Zehrs-124 Clair Rd E-2025-06-12.pdf"
    },
    {
      "id": "Zehrs-315 Lincoln Rd",
      "name": "Zehrs",
      "logo": "Logo_Zehrs.png",
      "location": "315 Lincoln Rd",
      "filename": "Zehrs-1005 Ottawa St N-2025-06-12.json",
      "validUntil": "2025-06-12",
      "location_name": "Glenridge",
      "city": "Waterloo",
      "postal_code": "N2J 4H7",
      "coordinates": "43.482895, -80.505993",
      "flyer": "Zehrs-315 Lincoln Rd-2025-06-12.pdf"
    },
    {
      "id": "Zehrs-297 Eramosa Rd",
      "name": "Zehrs",
      "logo": "Logo_Zehrs.png",
      "location": "297 Eramosa Rd",
      "filename": "Zehrs-1005 Ottawa St N-2025-06-12.json",
      "validUntil": "2025-06-12",
      "location_name": "Eramosa",
      "city": "Guelph",
      "postal_code": "N1E 2M7",
      "coordinates": "43.558427, -80.247961",
      "flyer": "Zehrs-297 Eramosa Rd-2025-06-12.pdf"
    },
    {
      "id": "RealCanadianSuperstore-875 Highland Rd W",
      "name": "RealCanadianSuperstore",
      "logo": "Logo_RealCanadianSuperstore.png",
      "location": "875 Highland Rd W",
      "filename": "RealCanadianSuperstore-875 Highland Rd W-2025-06-12.json",
      "validUntil": "2025-06-12",
      "location_name": "Highland Road",
      "city": "Kitchener",
      "postal_code": "N2N 2Y2",
      "coordinates": "43.429354, -80.526329",
      "flyer": "RealCanadianSuperstore-875 Highland Rd W-2025-06-12.pdf"
    },
    {
      "id": "Zehrs-450 Erb St. W",
      "name": "Zehrs",
      "logo": "Logo_Zehrs.png",
      "location": "450 Erb St. W",
      "filename": "Zehrs-1005 Ottawa St N-2025-06-12.json",
      "validUntil": "2025-06-12",
      "location_name": "Beechwood",
      "city": "Waterloo",
      "postal_code": "N2T 1H4",
      "coordinates": "43.452939, -80.555572",
      "flyer": "Zehrs-450 Erb St. W-2025-06-12.pdf"
    },
    {
      "id": "Zehrs-555 Davenport Rd",
      "name": "Zehrs",
      "logo": "Logo_Zehrs.png",
      "location": "555 Davenport Rd",
      "filename": "Zehrs-1005 Ottawa St N-2025-06-12.json",
      "validUntil": "2025-06-12",
      "location_name": "Conestoga",
      "city": "Waterloo",
      "postal_code": "N2L 6L2",
      "coordinates": "43.497027, -80.524639",
      "flyer": "Zehrs-555 Davenport Rd-2025-06-12.pdf"
    },
    {
      "id": "Zehrs-800 Tower St S",
      "name": "Zehrs",
      "logo": "Logo_Zehrs.png",
      "location": "800 Tower St S",
      "filename": "Zehrs-1005 Ottawa St N-2025-06-12.json",
      "validUntil": "2025-06-12",
      "location_name": "Fergus",
      "city": "Fergus",
      "postal_code": "N1M 2R2",
      "coordinates": "43.698291, -80.370247",
      "flyer": "Zehrs-800 Tower St S-2025-06-12.pdf"
    },
    {
      "id": "Zehrs-290 King George Rd",
      "name": "Zehrs",
      "logo": "Logo_Zehrs.png",
      "location": "290 King George Rd",
      "filename": "Zehrs-1005 Ottawa St N-2025-06-12.json",
      "validUntil": "2025-06-12",
      "location_name": "King George",
      "city": "Brantford",
      "postal_code": "N3R 5L8",
      "coordinates": "43.181203, -80.27911",
      "flyer": "Zehrs-290 King George Rd-2025-06-12.pdf"
    },
    {
      "id": "Zehrs-410 Fairview Dr",
      "name": "Zehrs",
      "logo": "Logo_Zehrs.png",
      "location": "410 Fairview Dr",
      "filename": "Zehrs-1005 Ottawa St N-2025-06-12.json",
      "validUntil": "2025-06-12",
      "location_name": "Fairview",
      "city": "Brantford",
      "postal_code": "N3R 2X6",
      "coordinates": "43.171388, -80.250536",
      "flyer": "Zehrs-410 Fairview Dr-2025-06-12.pdf"
    },
    {
      "id": "Zehrs-221 Glendale Ave",
      "name": "Zehrs",
      "logo": "Logo_Zehrs.png",
      "location": "221 Glendale Ave",
      "filename": "Zehrs-1005 Ottawa St N-2025-06-12.json",
      "validUntil": "2025-06-12",
      "location_name": "Pen Centre",
      "city": "St. Catharines",
      "postal_code": "L2T 2K9",
      "coordinates": "43.136162, -79.224566",
      "flyer": "Zehrs-221 Glendale Ave-2025-06-12.pdf"
    },
    {
      "id": "Sobeys-130 Cedar St",
      "name": "Sobeys",
      "logo": "Logo_Sobeys.png",
      "location": "130 Cedar St",
      "filename": "Sobeys-100 Mill St Unit A-2025-06-12.json",
      "validUntil": "2025-06-12",
      "location_name": "",
      "city": "Cambridge",
      "postal_code": "N1S 1W4",
      "coordinates": "43.352385, -80.329094",
      "flyer": "Sobeys-130 Cedar St-2025-06-12.pdf"
    },
    {
      "id": "Sobeys-94 Bridgeport Rd E",
      "name": "Sobeys",
      "logo": "Logo_Sobeys.png",
      "location": "94 Bridgeport Rd E",
      "filename": "Sobeys-100 Mill St Unit A-2025-06-12.json",
      "validUntil": "2025-06-12",
      "location_name": "",
      "city": "",
      "postal_code": "N2J 2J9",
      "coordinates": "43.471177, -80.514727",
      "flyer": "Sobeys-94 Bridgeport Rd E-2025-06-12.pdf"
    },
    {
      "id": "Sobeys-1187 Fischer-Hallman Rd",
      "name": "Sobeys",
      "logo": "Logo_Sobeys.png",
      "location": "1187 Fischer-Hallman Rd",
      "filename": "Sobeys-100 Mill St Unit A-2025-06-12.json",
      "validUntil": "2025-06-12",
      "location_name": "",
      "city": "",
      "postal_code": "N2E 4H9",
      "coordinates": "43.406498, -80.501685",
      "flyer": "Sobeys-1187 Fischer-Hallman Rd-2025-06-12.pdf"
    },
    {
      "id": "Sobeys-274 Highland Rd W",
      "name": "Sobeys",
      "logo": "Logo_Sobeys.png",
      "location": "274 Highland Rd W",
      "filename": "Sobeys-100 Mill St Unit A-2025-06-12.json",
      "validUntil": "2025-06-12",
      "location_name": "",
      "city": "",
      "postal_code": "N2M 3C5",
      "coordinates": "43.439537, -80.509781",
      "flyer": "Sobeys-274 Highland Rd W-2025-06-12.pdf"
    },
    {
      "id": "Sobeys-640 Parkside Dr",
      "name": "Sobeys",
      "logo": "Logo_Sobeys.png",
      "location": "640 Parkside Dr",
      "filename": "Sobeys-100 Mill St Unit A-2025-06-12.json",
      "validUntil": "2025-06-12",
      "location_name": "",
      "city": "",
      "postal_code": "N2L 0C7",
      "coordinates": "43.498511, -80.550143",
      "flyer": "Sobeys-640 Parkside Dr-2025-06-12.pdf"
    },
    {
      "id": "Sobeys-450 Columbia St W",
      "name": "Sobeys",
      "logo": "Logo_Sobeys.png",
      "location": "450 Columbia St W",
      "filename": "Sobeys-450 Columbia St W-2025-06-12.json",
      "validUntil": "2025-06-12",
      "location_name": "",
      "city": "Waterloo",
      "postal_code": "N2T 2W1",
      "coordinates": "43.468361, -80.568414",
      "flyer": "Sobeys-450 Columbia St W-2025-06-12.pdf"
    },
    {
      "id": "Sobeys-235 Ira Needles Blvd",
      "name": "Sobeys",
      "logo": "Logo_Sobeys.png",
      "location": "235 Ira Needles Blvd",
      "filename": "Sobeys-100 Mill St Unit A-2025-06-12.json",
      "validUntil": "2025-06-12",
      "location_name": "",
      "city": "Kitchener",
      "postal_code": "N2N 0B2",
      "coordinates": "43.42555, -80.553755",
      "flyer": "Sobeys-235 Ira Needles Blvd-2025-06-12.pdf"
    },
    {
      "id": "Sobeys-100 Mill St Unit A",
      "name": "Sobeys",
      "logo": "Logo_Sobeys.png",
      "location": "100 Mill St Unit A",
      "filename": "Sobeys-100 Mill St Unit A-2025-06-12.json",
      "validUntil": "2025-06-12",
      "location_name": "",
      "city": "New Hamburg",
      "postal_code": "N3A 1R1",
      "coordinates": "43.380461, -80.71132",
      "flyer": "Sobeys-100 Mill St Unit A-2025-06-12.pdf"
    },
    {
      "id": "Sobeys-977 Golf Links Rd",
      "name": "Sobeys",
      "logo": "Logo_Sobeys.png",
      "location": "977 Golf Links Rd",
      "filename": "Sobeys-100 Mill St Unit A-2025-06-12.json",
      "validUntil": "2025-06-12",
      "location_name": "",
      "city": "Ancaster",
      "postal_code": "L9K 1K1",
      "coordinates": "43.228203, -79.943615",
      "flyer": "Sobeys-977 Golf Links Rd-2025-06-12.pdf"
    },
    {
      "id": "Sobeys-307 Grand River St N",
      "name": "Sobeys",
      "logo": "Logo_Sobeys.png",
      "location": "307 Grand River St N",
      "filename": "Sobeys-100 Mill St Unit A-2025-06-12.json",
      "validUntil": "2025-06-12",
      "location_name": "",
      "city": "Paris/New Hamburg",
      "postal_code": "N3L 2N9",
      "coordinates": "43.212704, -80.38975",
      "flyer": "Sobeys-307 Grand River St N-2025-06-12.pdf"
    },
    {
      "id": "Sobeys-310 Colborne St W",
      "name": "Sobeys",
      "logo": "Logo_Sobeys.png",
      "location": "310 Colborne St W",
      "filename": "Sobeys-100 Mill St Unit A-2025-06-12.json",
      "validUntil": "2025-06-12",
      "location_name": "",
      "city": "New Hamburg",
      "postal_code": "N3S 3M9",
      "coordinates": "43.139008, -80.258203",
      "flyer": "Sobeys-310 Colborne St W-2025-06-12.pdf"
    },
    {
      "id": "Sobeys-372 Queen St",
      "name": "Sobeys",
      "logo": "Logo_Sobeys.png",
      "location": "372 Queen St",
      "filename": "Sobeys-100 Mill St Unit A-2025-06-12.json",
      "validUntil": "2025-06-12",
      "location_name": "",
      "city": "New Hamburg",
      "postal_code": "L7J 2Y5",
      "coordinates": "43.638059, -80.025544",
      "flyer": "Sobeys-372 Queen St-2025-06-12.pdf"
    },
    {
      "id": "Sobeys-1035 Bronte St. S",
      "name": "Sobeys",
      "logo": "Logo_Sobeys.png",
      "location": "1035 Bronte St. S",
      "filename": "Sobeys-1035 Bronte St. S-2025-06-12.json",
      "validUntil": "2025-06-12",
      "location_name": "",
      "city": "Milton",
      "postal_code": "L9T 8X3",
      "coordinates": "43.489001, -79.858274",
      "flyer": "Sobeys-1035 Bronte St. S-2025-06-12.pdf"
    },
    {
      "id": "Sobeys-379 Springbank Ave N",
      "name": "Sobeys",
      "logo": "Logo_Sobeys.png",
      "location": "379 Springbank Ave N",
      "filename": "Sobeys-100 Mill St Unit A-2025-06-12.json",
      "validUntil": "2025-06-12",
      "location_name": "",
      "city": "Woodstock",
      "postal_code": "N4T 1R3",
      "coordinates": "43.146471, -80.737505",
      "flyer": "Sobeys-379 Springbank Ave N-2025-06-12.pdf"
    },
    {
      "id": "Sobeys-255 Dundas St E",
      "name": "Sobeys",
      "logo": "Logo_Sobeys.png",
      "location": "255 Dundas St E",
      "filename": "Sobeys-100 Mill St Unit A-2025-06-12.json",
      "validUntil": "2025-06-12",
      "location_name": "",
      "city": "Flameborough",
      "postal_code": "L8B 0E5",
      "coordinates": "43.657856, -79.372473",
      "flyer": "Sobeys-255 Dundas St E-2025-06-12.pdf"
    },
    {
      "id": "Sobeys-1250 Brant St",
      "name": "Sobeys",
      "logo": "Logo_Sobeys.png",
      "location": "1250 Brant St",
      "filename": "Sobeys-1250 Brant St-2025-06-12.json",
      "validUntil": "2025-06-12",
      "location_name": "",
      "city": "Burlington",
      "postal_code": "L7P 1X8",
      "coordinates": "43.34427, -79.827961",
      "flyer": "Sobeys-1250 Brant St-2025-06-12.pdf"
    },
    {
      "id": "Sobeys-1770 Stone Church Rd E",
      "name": "Sobeys",
      "logo": "Logo_Sobeys.png",
      "location": "1770 Stone Church Rd E",
      "filename": "Sobeys-100 Mill St Unit A-2025-06-12.json",
      "validUntil": "2025-06-12",
      "location_name": "",
      "city": "Stoney Creek",
      "postal_code": "L8J 0K5",
      "coordinates": "43.192132, -79.814525",
      "flyer": "Sobeys-1770 Stone Church Rd E-2025-06-12.pdf"
    },
    {
      "id": "Sobeys-581 Huron St Unit #1",
      "name": "Sobeys",
      "logo": "Logo_Sobeys.png",
      "location": "581 Huron St Unit #1",
      "filename": "Sobeys-100 Mill St Unit A-2025-06-12.json",
      "validUntil": "2025-06-12",
      "location_name": "",
      "city": "Stratford",
      "postal_code": "N5A 5T8",
      "coordinates": "43.380447, -81.003581",
      "flyer": "Sobeys-581 Huron St Unit #1-2025-06-12.pdf"
    },
    {
      "id": "Sobeys-500 Riddell Rd",
      "name": "Sobeys",
      "logo": "Logo_Sobeys.png",
      "location": "500 Riddell Rd",
      "filename": "Sobeys-100 Mill St Unit A-2025-06-12.json",
      "validUntil": "2025-06-12",
      "location_name": "",
      "city": "Orangeville",
      "postal_code": "L9W 5L1",
      "coordinates": "43.9032, -80.1219",
      "flyer": "Sobeys-500 Riddell Rd-2025-06-12.pdf"
    },
    {
      "id": "Sobeys-11965 Hurontario St",
      "name": "Sobeys",
      "logo": "Logo_Sobeys.png",
      "location": "11965 Hurontario St",
      "filename": "Sobeys-100 Mill St Unit A-2025-06-12.json",
      "validUntil": "2025-06-12",
      "location_name": "Mayfield",
      "city": "Brampton",
      "postal_code": "L6Z 4P7",
      "coordinates": "43.733695, -79.823371",
      "flyer": "Sobeys-11965 Hurontario St-2025-06-12.pdf"
    },
    {
      "id": "Sobeys-1500 Upper Middle Rd W",
      "name": "Sobeys",
      "logo": "Logo_Sobeys.png",
      "location": "1500 Upper Middle Rd W",
      "filename": "Sobeys-100 Mill St Unit A-2025-06-12.json",
      "validUntil": "2025-06-12",
      "location_name": "",
      "city": "Glen Abbey",
      "postal_code": "L6M 3G3",
      "coordinates": "43.4381, -79.741604",
      "flyer": "Sobeys-1500 Upper Middle Rd W-2025-06-12.pdf"
    },
    {
      "id": "NoFrills-1515 King St E",
      "name": "NoFrills",
      "logo": "Logo_NoFrills.png",
      "location": "1515 King St E",
      "filename": "NoFrills-1515 King St E-2025-06-12.json",
      "validUntil": "2025-06-12",
      "location_name": "Javid & Salma's",
      "city": "Cambridge",
      "postal_code": "N3H 3R6",
      "coordinates": "43.39031, -80.346156",
      "flyer": "NoFrills-1515 King St E-2025-06-12.pdf"
    },
    {
      "id": "NoFrills-980 Franklin Blvd",
      "name": "NoFrills",
      "logo": "Logo_NoFrills.png",
      "location": "980 Franklin Blvd",
      "filename": "NoFrills-6520 Derry Rd-2025-06-12.json",
      "validUntil": "2025-06-12",
      "location_name": "Ross and Lindsay's",
      "city": "Cambridge",
      "postal_code": "N1R 8R3",
      "coordinates": "43.393038, -80.303962",
      "flyer": "NoFrills-980 Franklin Blvd-2025-06-12.pdf"
    },
    {
      "id": "NoFrills-700 Strasburg Rd",
      "name": "NoFrills",
      "logo": "Logo_NoFrills.png",
      "location": "700 Strasburg Rd",
      "filename": "NoFrills-1515 King St E-2025-06-12.json",
      "validUntil": "2025-06-12",
      "location_name": "Derek & Laura's",
      "city": "Kitchener",
      "postal_code": "N2E 2M2",
      "coordinates": "43.413826, -80.479342",
      "flyer": "NoFrills-700 Strasburg Rd-2025-06-12.pdf"
    },
    {
      "id": "NoFrills-191 Silvercreek Pkwy N",
      "name": "NoFrills",
      "logo": "Logo_NoFrills.png",
      "location": "191 Silvercreek Pkwy N",
      "filename": "NoFrills-1515 King St E-2025-06-12.json",
      "validUntil": "2025-06-12",
      "location_name": "Shannon & Richard's",
      "city": "Guelph",
      "postal_code": "N1H 3T2",
      "coordinates": "43.542112, -80.281101",
      "flyer": "NoFrills-191 Silvercreek Pkwy N-2025-06-12.pdf"
    },
    {
      "id": "NoFrills-35 Harvard Rd",
      "name": "NoFrills",
      "logo": "Logo_NoFrills.png",
      "location": "35 Harvard Rd",
      "filename": "NoFrills-1515 King St E-2025-06-12.json",
      "validUntil": "2025-06-12",
      "location_name": "Domenic's",
      "city": "Guelph",
      "postal_code": "N1G 3A2",
      "coordinates": "43.524806, -80.222549",
      "flyer": "NoFrills-35 Harvard Rd-2025-06-12.pdf"
    },
    {
      "id": "NoFrills-71 Dundas St E",
      "name": "NoFrills",
      "logo": "Logo_NoFrills.png",
      "location": "71 Dundas St E",
      "filename": "NoFrills-108 Colborne St W-2025-06-12.json",
      "validUntil": "2025-06-12",
      "location_name": "Jay's",
      "city": "Paris",
      "postal_code": "N3L 3H1",
      "coordinates": "43.190595, -80.367488",
      "flyer": "NoFrills-71 Dundas St E-2025-06-12.pdf"
    },
    {
      "id": "NoFrills-603 Colborne St E",
      "name": "NoFrills",
      "logo": "Logo_NoFrills.png",
      "location": "603 Colborne St E",
      "filename": "NoFrills-108 Colborne St W-2025-06-12.json",
      "validUntil": "2025-06-12",
      "location_name": "Walker's",
      "city": "Brantford",
      "postal_code": "N3S 7S8",
      "coordinates": "43.139647, -80.241904",
      "flyer": "NoFrills-603 Colborne St E-2025-06-12.pdf"
    },
    {
      "id": "NoFrills-108 Colborne St W",
      "name": "NoFrills",
      "logo": "Logo_NoFrills.png",
      "location": "108 Colborne St W",
      "filename": "NoFrills-108 Colborne St W-2025-06-12.json",
      "validUntil": "2025-06-12",
      "location_name": "Rusty's",
      "city": "Brantford",
      "postal_code": "N3T 1K7",
      "coordinates": "43.133629, -80.274589",
      "flyer": "NoFrills-108 Colborne St W-2025-06-12.pdf"
    },
    {
      "id": "NoFrills-675 Rymal Rd E",
      "name": "NoFrills",
      "logo": "Logo_NoFrills.png",
      "location": "675 Rymal Rd E",
      "filename": "NoFrills-675 Rymal Rd E-2025-06-12.json",
      "validUntil": "2025-06-12",
      "location_name": "Chris & Jenn's",
      "city": "Hamilton",
      "postal_code": "L8W 1B5",
      "coordinates": "43.195386, -79.862694",
      "flyer": "NoFrills-675 Rymal Rd E-2025-06-12.pdf"
    },
    {
      "id": "NoFrills-6520 Derry Rd",
      "name": "NoFrills",
      "logo": "Logo_NoFrills.png",
      "location": "6520 Derry Rd",
      "filename": "NoFrills-6520 Derry Rd-2025-06-12.json",
      "validUntil": "2025-06-12",
      "location_name": "John's",
      "city": "Milton",
      "postal_code": "L9T 7Z3",
      "coordinates": "43.490928, -79.877785",
      "flyer": "NoFrills-6520 Derry Rd-2025-06-12.pdf"
    },
    {
      "id": "NoFrills-1540 Haysville Rd",
      "name": "NoFrills",
      "logo": "Logo_NoFrills.png",
      "location": "1540 Haysville Rd",
      "filename": "NoFrills-108 Colborne St W-2025-06-12.json",
      "validUntil": "2025-06-12",
      "location_name": "Mackay's",
      "city": "New Hamburg",
      "postal_code": "N3A 0A2",
      "coordinates": "43.370532, -80.703589",
      "flyer": "NoFrills-1540 Haysville Rd-2025-06-12.pdf"
    },
    {
      "id": "NoFrills-571 Brant St",
      "name": "NoFrills",
      "logo": "Logo_NoFrills.png",
      "location": "571 Brant St",
      "filename": "NoFrills-108 Colborne St W-2025-06-12.json",
      "validUntil": "2025-06-12",
      "location_name": "Daniel's",
      "city": "Burlington",
      "postal_code": "L7R 2G6",
      "coordinates": "43.329437, -79.801905",
      "flyer": "NoFrills-571 Brant St-2025-06-12.pdf"
    },
    {
      "id": "NoFrills-1395 Abbeywood Dr",
      "name": "NoFrills",
      "logo": "Logo_NoFrills.png",
      "location": "1395 Abbeywood Dr",
      "filename": "NoFrills-108 Colborne St W-2025-06-12.json",
      "validUntil": "2025-06-12",
      "location_name": "Oleg's",
      "city": "Oakville",
      "postal_code": "L6M 3B2",
      "coordinates": "43.431483, -79.725778",
      "flyer": "NoFrills-1395 Abbeywood Dr-2025-06-12.pdf"
    },
    {
      "id": "Metro-500 Edinburgh Rd S",
      "name": "Metro",
      "logo": "Logo_Metro.png",
      "location": "500 Edinburgh Rd S",
      "filename": "Metro-500 Edinburgh Rd S-2025-06-12.json",
      "validUntil": "2025-06-12",
      "location_name": "Stone Road",
      "city": "Guelph",
      "postal_code": "N1G 4Z1",
      "coordinates": "43.521567, -80.233531",
      "flyer": "Metro-500 Edinburgh Rd S-2025-06-12.pdf"
    },
    {
      "id": "Metro-371 St Paul Ave",
      "name": "Metro",
      "logo": "Logo_Metro.png",
      "location": "371 St Paul Ave",
      "filename": "Metro-201 Lloyd Manor Rd-2025-06-12.json",
      "validUntil": "2025-06-12",
      "location_name": "St Paul",
      "city": "Brantford",
      "postal_code": "N3R 4N5",
      "coordinates": "43.156021, -80.273448",
      "flyer": "Metro-371 St Paul Ave-2025-06-12.pdf"
    },
    {
      "id": "Metro-6677 Meadowvale Town Centre Cir",
      "name": "Metro",
      "logo": "Logo_Metro.png",
      "location": "6677 Meadowvale Town Centre Cir",
      "filename": "Metro-6677 Meadowvale Town Centre Cir-2025-06-12.json",
      "validUntil": "2025-06-12",
      "location_name": "Meadowvale",
      "city": "Mississauga",
      "postal_code": "L5N 2W7",
      "coordinates": "43.583592, -79.759997",
      "flyer": "Metro-6677 Meadowvale Town Centre Cir-2025-06-12.pdf"
    },
    {
      "id": "Metro-Iona Plaza, 1585 Mississauga Vly Blvd",
      "name": "Metro",
      "logo": "Logo_Metro.png",
      "location": "Iona Plaza, 1585 Mississauga Vly Blvd",
      "filename": "Metro-6677 Meadowvale Town Centre Cir-2025-06-12.json",
      "validUntil": "2025-06-12",
      "location_name": "Mississauga Valley Blvd",
      "city": "Mississauga",
      "postal_code": "L5A 3W9",
      "coordinates": "43.592178, -79.62568",
      "flyer": "Metro-Iona Plaza, 1585 Mississauga Vly Blvd-2025-06-12.pdf"
    },
    {
      "id": "Metro-301 Oxford St W",
      "name": "Metro",
      "logo": "Logo_Metro.png",
      "location": "301 Oxford St W",
      "filename": "Metro-201 Lloyd Manor Rd-2025-06-12.json",
      "validUntil": "2025-06-12",
      "location_name": "Cherryhill",
      "city": "London",
      "postal_code": "N6H 1S9",
      "coordinates": "42.990088, -81.27501",
      "flyer": "Metro-301 Oxford St W-2025-06-12.pdf"
    },
    {
      "id": "Metro-201 Lloyd Manor Rd",
      "name": "Metro",
      "logo": "Logo_Metro.png",
      "location": "201 Lloyd Manor Rd",
      "filename": "Metro-201 Lloyd Manor Rd-2025-06-12.json",
      "validUntil": "2025-06-12",
      "location_name": "Lloyd Manor",
      "city": "Etobicoke",
      "postal_code": "M9B 5K6",
      "coordinates": "43.675064, -79.555708",
      "flyer": "Metro-201 Lloyd Manor Rd-2025-06-12.pdf"
    },
    {
      "id": "Metro-25 Peel Centre Dr",
      "name": "Metro",
      "logo": "Logo_Metro.png",
      "location": "25 Peel Centre Dr",
      "filename": "Metro-25 Peel Centre Dr-2025-06-12.json",
      "validUntil": "2025-06-12",
      "location_name": "Bramalea City Centre",
      "city": "Brampton",
      "postal_code": "L6T 3R5",
      "coordinates": "43.714354, -79.722845",
      "flyer": "Metro-25 Peel Centre Dr-2025-06-12.pdf"
    },
    {
      "id": "FreshCo -525 Hespeler Rd",
      "name": "FreshCo",
      "logo": "Logo_FreshCo.png",
      "location": "525 Hespeler Rd",
      "filename": "FreshCo-1 Hespeler Rd-2025-06-12.json",
      "validUntil": "2025-06-12",
      "location_name": "Hwy 24 and Sheldon Drive",
      "city": "Cambridge",
      "postal_code": "N1R 6J2",
      "coordinates": "43.400787, -80.324316",
      "flyer": "FreshCo -525 Hespeler Rd-2025-06-12.pdf"
    },
    {
      "id": "FreshCo -1 Hespeler Rd",
      "name": "FreshCo",
      "logo": "Logo_FreshCo.png",
      "location": "1 Hespeler Rd",
      "filename": "FreshCo-1 Hespeler Rd-2025-06-12.json",
      "validUntil": "2025-06-12",
      "location_name": "Hespeler & Dundas",
      "city": "Cambridge",
      "postal_code": "N1R 8L4",
      "coordinates": "43.37418, -80.318055",
      "flyer": "FreshCo -1 Hespeler Rd-2025-06-12.pdf"
    },
    {
      "id": "FreshCo -1111 Weber St E",
      "name": "FreshCo",
      "logo": "Logo_FreshCo.png",
      "location": "1111 Weber St E",
      "filename": "FreshCo-1 Hespeler Rd-2025-06-12.json",
      "validUntil": "2025-06-12",
      "location_name": "Weber & Franklin",
      "city": "Kitchener",
      "postal_code": "N2A 2Y2",
      "coordinates": "43.434396, -80.449236",
      "flyer": "FreshCo -1111 Weber St E-2025-06-12.pdf"
    },
    {
      "id": "FreshCo -75 Dundas St S",
      "name": "FreshCo",
      "logo": "Logo_FreshCo.png",
      "location": "75 Dundas St S",
      "filename": "FreshCo-1 Hespeler Rd-2025-06-12.json",
      "validUntil": "2025-06-12",
      "location_name": "Dundas & Main",
      "city": "Cambridge",
      "postal_code": "N1R 6G5",
      "coordinates": "43.359147, -80.292381",
      "flyer": "FreshCo -75 Dundas St S-2025-06-12.pdf"
    },
    {
      "id": "FreshCo -720 Westmount Rd E",
      "name": "FreshCo",
      "logo": "Logo_FreshCo.png",
      "location": "720 Westmount Rd E",
      "filename": "FreshCo-1 Hespeler Rd-2025-06-12.json",
      "validUntil": "2025-06-12",
      "location_name": "Westmount & Ottawa",
      "city": "Kitchener",
      "postal_code": "N2E 2M6",
      "coordinates": "43.418467, -80.500249",
      "flyer": "FreshCo -720 Westmount Rd E-2025-06-12.pdf"
    },
    {
      "id": "FreshCo -425 University Ave E",
      "name": "FreshCo",
      "logo": "Logo_FreshCo.png",
      "location": "425 University Ave E",
      "filename": "FreshCo-1 Hespeler Rd-2025-06-12.json",
      "validUntil": "2025-06-12",
      "location_name": "University & Bridge",
      "city": "Waterloo",
      "postal_code": "N2K 4C9",
      "coordinates": "43.489205, -80.492523",
      "flyer": "FreshCo -425 University Ave E-2025-06-12.pdf"
    },
    {
      "id": "FreshCo -330 Speedvale Ave E",
      "name": "FreshCo",
      "logo": "Logo_FreshCo.png",
      "location": "330 Speedvale Ave E",
      "filename": "FreshCo-1 Hespeler Rd-2025-06-12.json",
      "validUntil": "2025-06-12",
      "location_name": "Speedvale & Stevenson",
      "city": "Guelph",
      "postal_code": "N1E 1N5",
      "coordinates": "43.567617, -80.25893",
      "flyer": "FreshCo -330 Speedvale Ave E-2025-06-12.pdf"
    },
    {
      "id": "FreshCo -50 Market St S",
      "name": "FreshCo",
      "logo": "Logo_FreshCo.png",
      "location": "50 Market St S",
      "filename": "FreshCo-1 Hespeler Rd-2025-06-12.json",
      "validUntil": "2025-06-12",
      "location_name": "Market & Icomm",
      "city": "Brantford",
      "postal_code": "N3S 2E3",
      "coordinates": "43.137221, -80.263102",
      "flyer": "FreshCo -50 Market St S-2025-06-12.pdf"
    },
    {
      "id": "FreshCo -875 St David St N",
      "name": "FreshCo",
      "logo": "Logo_FreshCo.png",
      "location": "875 St David St N",
      "filename": "FreshCo-1 Hespeler Rd-2025-06-12.json",
      "validUntil": "2025-06-12",
      "location_name": "St. David & Gordon",
      "city": "Fergus",
      "postal_code": "N1M 2W3",
      "coordinates": "43.713643, -80.390433",
      "flyer": "FreshCo -875 St David St N-2025-06-12.pdf"
    },
    {
      "id": "FoodBasics-851 Fischer-Hallman Road",
      "name": "FoodBasics",
      "logo": "Logo_FoodBasics.png",
      "location": "851 Fischer-Hallman Road",
      "filename": "FoodBasics-100 Jamieson Pkwy-2025-06-12.json",
      "validUntil": "2025-06-12",
      "location_name": "",
      "city": "",
      "postal_code": "N2M 5N8",
      "coordinates": "43.442492, -80.544576",
      "flyer": "FoodBasics-851 Fischer-Hallman Road-2025-06-12.pdf"
    },
    {
      "id": "FoodBasics-100 Jamieson Pkwy",
      "name": "FoodBasics",
      "logo": "Logo_FoodBasics.png",
      "location": "100 Jamieson Pkwy",
      "filename": "FoodBasics-100 Jamieson Pkwy-2025-06-12.json",
      "validUntil": "2025-06-12",
      "location_name": "",
      "city": "",
      "postal_code": "N3C 4B3",
      "coordinates": "43.417949, -80.309564",
      "flyer": "FoodBasics-100 Jamieson Pkwy-2025-06-12.pdf"
    },
    {
      "id": "FoodBasics-95 Water St N",
      "name": "FoodBasics",
      "logo": "Logo_FoodBasics.png",
      "location": "95 Water St N",
      "filename": "FoodBasics-100 Jamieson Pkwy-2025-06-12.json",
      "validUntil": "2025-06-12",
      "location_name": "",
      "city": "",
      "postal_code": "N2H 5B1",
      "coordinates": "43.454453, -80.492385",
      "flyer": "FoodBasics-95 Water St N-2025-06-12.pdf"
    },
    {
      "id": "FoodBasics-1405 Ottawa St N",
      "name": "FoodBasics",
      "logo": "Logo_FoodBasics.png",
      "location": "1405 Ottawa St N",
      "filename": "FoodBasics-1405 Ottawa St N-2025-06-12.json",
      "validUntil": "2025-06-12",
      "location_name": "",
      "city": "",
      "postal_code": "N2A 1H3",
      "coordinates": "43.456163, -80.429842",
      "flyer": "FoodBasics-1405 Ottawa St N-2025-06-12.pdf"
    },
    {
      "id": "FoodBasics-655 Fairway Rd S",
      "name": "FoodBasics",
      "logo": "Logo_FoodBasics.png",
      "location": "655 Fairway Rd S",
      "filename": "FoodBasics-100 Jamieson Pkwy-2025-06-12.json",
      "validUntil": "2025-06-12",
      "location_name": "",
      "city": "",
      "postal_code": "N2C 1X4",
      "coordinates": "43.419472, -80.44984",
      "flyer": "FoodBasics-655 Fairway Rd S-2025-06-12.pdf"
    },
    {
      "id": "FoodBasics-370 Highland Rd W",
      "name": "FoodBasics",
      "logo": "Logo_FoodBasics.png",
      "location": "370 Highland Rd W",
      "filename": "FoodBasics-100 Jamieson Pkwy-2025-06-12.json",
      "validUntil": "2025-06-12",
      "location_name": "",
      "city": "",
      "postal_code": "N2C 3C7",
      "coordinates": "43.438635, -80.511833",
      "flyer": "FoodBasics-370 Highland Rd W-2025-06-12.pdf"
    },
    {
      "id": "FoodBasics-3 Clair Rd W",
      "name": "FoodBasics",
      "logo": "Logo_FoodBasics.png",
      "location": "3 Clair Rd W",
      "filename": "FoodBasics-222 Silvercreek Pkwy N-2025-06-12.json",
      "validUntil": "2025-06-12",
      "location_name": "",
      "city": "",
      "postal_code": "N1L 0A6",
      "coordinates": "43.499983, -80.191699",
      "flyer": "FoodBasics-3 Clair Rd W-2025-06-12.pdf"
    },
    {
      "id": "FoodBasics-1270 Fischer-Hallman Rd",
      "name": "FoodBasics",
      "logo": "Logo_FoodBasics.png",
      "location": "1270 Fischer-Hallman Rd",
      "filename": "FoodBasics-100 Jamieson Pkwy-2025-06-12.json",
      "validUntil": "2025-06-12",
      "location_name": "",
      "city": "",
      "postal_code": "N2E 3X7",
      "coordinates": "43.400111, -80.494136",
      "flyer": "FoodBasics-1270 Fischer-Hallman Rd-2025-06-12.pdf"
    },
    {
      "id": "FoodBasics-380 Eramosa Rd",
      "name": "FoodBasics",
      "logo": "Logo_FoodBasics.png",
      "location": "380 Eramosa Rd",
      "filename": "FoodBasics-222 Silvercreek Pkwy N-2025-06-12.json",
      "validUntil": "2025-06-12",
      "location_name": "",
      "city": "",
      "postal_code": "N1E 6R2",
      "coordinates": "43.561738, -80.249725",
      "flyer": "FoodBasics-380 Eramosa Rd-2025-06-12.pdf"
    },
    {
      "id": "FoodBasics-600 Laurelwood Dr",
      "name": "FoodBasics",
      "logo": "Logo_FoodBasics.png",
      "location": "600 Laurelwood Dr",
      "filename": "FoodBasics-100 Jamieson Pkwy-2025-06-12.json",
      "validUntil": "2025-06-12",
      "location_name": "",
      "city": "",
      "postal_code": "N2V 0A2",
      "coordinates": "43.472333, -80.593091",
      "flyer": "FoodBasics-600 Laurelwood Dr-2025-06-12.pdf"
    },
    {
      "id": "FoodBasics-222 Silvercreek Pkwy N",
      "name": "FoodBasics",
      "logo": "Logo_FoodBasics.png",
      "location": "222 Silvercreek Pkwy N",
      "filename": "FoodBasics-222 Silvercreek Pkwy N-2025-06-12.json",
      "validUntil": "2025-06-12",
      "location_name": "",
      "city": "",
      "postal_code": "N1H 8E8",
      "coordinates": "43.543447, -80.286746",
      "flyer": "FoodBasics-222 Silvercreek Pkwy N-2025-06-12.pdf"
    },
    {
      "id": "FoodBasics-232 Arthur St S",
      "name": "FoodBasics",
      "logo": "Logo_FoodBasics.png",
      "location": "232 Arthur St S",
      "filename": "FoodBasics-222 Silvercreek Pkwy N-2025-06-12.json",
      "validUntil": "2025-06-12",
      "location_name": "",
      "city": "",
      "postal_code": "N3B 2P2",
      "coordinates": "43.589667, -80.562095",
      "flyer": "FoodBasics-232 Arthur St S-2025-06-12.pdf"
    },
    {
      "id": "FoodBasics-265 King George Rd",
      "name": "FoodBasics",
      "logo": "Logo_FoodBasics.png",
      "location": "265 King George Rd",
      "filename": "FoodBasics-222 Silvercreek Pkwy N-2025-06-12.json",
      "validUntil": "2025-06-12",
      "location_name": "",
      "city": "",
      "postal_code": "N3R 6Y1",
      "coordinates": "44.01121, -79.601058",
      "flyer": "FoodBasics-265 King George Rd-2025-06-12.pdf"
    },
    {
      "id": "FoodBasics-845 King St W",
      "name": "FoodBasics",
      "logo": "Logo_FoodBasics.png",
      "location": "845 King St W",
      "filename": "FoodBasics-135 Barton St E-2025-06-12.json",
      "validUntil": "2025-06-12",
      "location_name": "",
      "city": "",
      "postal_code": "L8S 1K4",
      "coordinates": "43.262345, -79.899764",
      "flyer": "FoodBasics-845 King St W-2025-06-12.pdf"
    },
    {
      "id": "FoodBasics-135 Barton St E",
      "name": "FoodBasics",
      "logo": "Logo_FoodBasics.png",
      "location": "135 Barton St E",
      "filename": "FoodBasics-135 Barton St E-2025-06-12.json",
      "validUntil": "2025-06-12",
      "location_name": "",
      "city": "",
      "postal_code": "L8L 4Y2",
      "coordinates": "43.262996, -79.860208",
      "flyer": "FoodBasics-135 Barton St E-2025-06-12.pdf"
    },
    {
      "id": "FoodBasics-84 Lynden Rd",
      "name": "FoodBasics",
      "logo": "Logo_FoodBasics.png",
      "location": "84 Lynden Rd",
      "filename": "FoodBasics-222 Silvercreek Pkwy N-2025-06-12.json",
      "validUntil": "2025-06-12",
      "location_name": "",
      "city": "",
      "postal_code": "N3R 6B8",
      "coordinates": "43.172674, -80.240296",
      "flyer": "FoodBasics-84 Lynden Rd-2025-06-12.pdf"
    },
    {
      "id": "FarmBoy-350 Hespeler Rd",
      "name": "FarmBoy",
      "logo": "Logo_FarmBoy.png",
      "location": "350 Hespeler Rd",
      "filename": "FarmBoy-240 King George Rd-2025-06-12.json",
      "validUntil": "2025-06-12",
      "location_name": "Cambridge",
      "city": "Cambridge",
      "postal_code": "N1R 7N7",
      "coordinates": "43.391032, -80.323311",
      "flyer": "FarmBoy-350 Hespeler Rd-2025-06-12.pdf"
    },
    {
      "id": "FarmBoy-Fairway Plaza, 385 Fairway Rd S",
      "name": "FarmBoy",
      "logo": "Logo_FarmBoy.png",
      "location": "Fairway Plaza, 385 Fairway Rd S",
      "filename": "FarmBoy-240 King George Rd-2025-06-12.json",
      "validUntil": "2025-06-12",
      "location_name": "Fairway Plaza",
      "city": "Kitchener",
      "postal_code": "N2C 2N9",
      "coordinates": "43.420214, -80.440219",
      "flyer": "FarmBoy-Fairway Plaza, 385 Fairway Rd S-2025-06-12.pdf"
    },
    {
      "id": "FarmBoy-417 King St N",
      "name": "FarmBoy",
      "logo": "Logo_FarmBoy.png",
      "location": "417 King St N",
      "filename": "FarmBoy-240 King George Rd-2025-06-12.json",
      "validUntil": "2025-06-12",
      "location_name": "Waterloo",
      "city": "Waterloo",
      "postal_code": "N2J 2Z5",
      "coordinates": "43.485677, -80.527539",
      "flyer": "FarmBoy-417 King St N-2025-06-12.pdf"
    },
    {
      "id": "FarmBoy-370 Stone Rd W",
      "name": "FarmBoy",
      "logo": "Logo_FarmBoy.png",
      "location": "370 Stone Rd W",
      "filename": "FarmBoy-240 King George Rd-2025-06-12.json",
      "validUntil": "2025-06-12",
      "location_name": "Stone Road Guelph",
      "city": "Guelph",
      "postal_code": "N1G 4V9",
      "coordinates": "43.516439, -80.236386",
      "flyer": "FarmBoy-370 Stone Rd W-2025-06-12.pdf"
    },
    {
      "id": "FarmBoy-240 King George Rd",
      "name": "FarmBoy",
      "logo": "Logo_FarmBoy.png",
      "location": "240 King George Rd",
      "filename": "FarmBoy-240 King George Rd-2025-06-12.json",
      "validUntil": "2025-06-12",
      "location_name": "Brantford",
      "city": "Brantford",
      "postal_code": "N3R 5L4",
      "coordinates": "44.01121, -79.601058",
      "flyer": "FarmBoy-240 King George Rd-2025-06-12.pdf"
    },
    {
      "id": "FarmBoy-Harvard Square, 801 Mohawk Rd W",
      "name": "FarmBoy",
      "logo": "Logo_FarmBoy.png",
      "location": "Harvard Square, 801 Mohawk Rd W",
      "filename": "FarmBoy-240 King George Rd-2025-06-12.json",
      "validUntil": "2025-06-12",
      "location_name": "Hamilton",
      "city": "Hamilton",
      "postal_code": "L9C 6C2",
      "coordinates": "43.233114, -79.923025",
      "flyer": "FarmBoy-Harvard Square, 801 Mohawk Rd W-2025-06-12.pdf"
    }
  ],

}